%YAML 1.1
---
# CODIFICATION_OF_OVERSEAS_COLLECTIVITIES
-
  REF_INSEE: 97501
  NAME: "Miquelon-Langlade"
  SLUG: "miquelon-langlade"
  NORMALIZED: "miquelon langlade"
  DEPARTMENT: 975
  REGION: ""
  IS_DISTRICT: 0
  DISTRICT_OF: ""
  ZIP_CODES: 97500
  LATITUDE: 46.951611999
  LONGITUDE: -56.324419806
-
  REF_INSEE: 97502
  NAME: "Saint-Pierre"
  SLUG: "saint-pierre"
  NORMALIZED: "saint pierre"
  DEPARTMENT: 975
  REGION: ""
  IS_DISTRICT: 0
  DISTRICT_OF: ""
  ZIP_CODES: 97500
  LATITUDE: 46.779881399
  LONGITUDE: -56.189608569
-
  REF_INSEE: 97701
  NAME: "Saint-Barthélemy"
  SLUG: "saint-barthelemy"
  NORMALIZED: "saint barthelemy"
  DEPARTMENT: 977
  REGION: ""
  IS_DISTRICT: 0
  DISTRICT_OF: ""
  ZIP_CODES: 97133
  LATITUDE: 17.905584522
  LONGITUDE: -62.832619625
-
  REF_INSEE: 97801
  NAME: "Saint-Martin"
  SLUG: "saint-martin"
  NORMALIZED: "saint martin"
  DEPARTMENT: 978
  REGION: ""
  IS_DISTRICT: 0
  DISTRICT_OF: ""
  ZIP_CODES: 97150
  LATITUDE: 18.077620619
  LONGITUDE: -63.055070631
-
  REF_INSEE: 98411
  NAME: "Îles Saint-Paul et Amsterdam"
  SLUG: "iles-saint-paul-et-amsterdam"
  NORMALIZED: "iles saint paul et amsterdam"
  DEPARTMENT: 984
  REGION: ""
  IS_DISTRICT: 0
  DISTRICT_OF: ""
  ZIP_CODES: ""
  LATITUDE: -38.258644000
  LONGITUDE: 77.530983000
-
  REF_INSEE: 98412
  NAME: "Archipel des Kerguelen"
  SLUG: "archipel-des-kerguelen"
  NORMALIZED: "archipel des kerguelen"
  DEPARTMENT: 984
  REGION: ""
  IS_DISTRICT: 0
  DISTRICT_OF: ""
  ZIP_CODES: ""
  LATITUDE: -49.394859000
  LONGITUDE: 69.357579000
-
  REF_INSEE: 98413
  NAME: "Archipel des Crozet"
  SLUG: "archipel-des-crozet"
  NORMALIZED: "archipel des crozet"
  DEPARTMENT: 984
  REGION: ""
  IS_DISTRICT: 0
  DISTRICT_OF: ""
  ZIP_CODES: ""
  LATITUDE: -46.324083000
  LONGITUDE: 51.082847000
-
  REF_INSEE: 98414
  NAME: "La Terre-Adélie"
  SLUG: "la-terre-adelie"
  NORMALIZED: "la terre adelie"
  DEPARTMENT: 984
  REGION: ""
  IS_DISTRICT: 0
  DISTRICT_OF: ""
  ZIP_CODES: ""
  LATITUDE: -66.663119000
  LONGITUDE: 140.001931000
-
  REF_INSEE: 98415
  NAME: "Îles Éparses de l'océan Indien"
  SLUG: "iles-eparses-de-l-ocean-indien"
  NORMALIZED: "iles eparses de l ocean indien"
  DEPARTMENT: 984
  REGION: ""
  IS_DISTRICT: 0
  DISTRICT_OF: ""
  ZIP_CODES: ""
  LATITUDE: -11.545416000
  LONGITUDE: 47.339727000
-
  REF_INSEE: 98611
  NAME: "Alo"
  SLUG: "alo"
  NORMALIZED: "alo"
  DEPARTMENT: 986
  REGION: ""
  IS_DISTRICT: 0
  DISTRICT_OF: ""
  ZIP_CODES: 98610
  LATITUDE: -14.357191664
  LONGITUDE: -178.029561662
-
  REF_INSEE: 98612
  NAME: "Sigave"
  SLUG: "sigave"
  NORMALIZED: "sigave"
  DEPARTMENT: 986
  REGION: ""
  IS_DISTRICT: 0
  DISTRICT_OF: ""
  ZIP_CODES: 98620
  LATITUDE: -14.270411199
  LONGITUDE: -178.155263035
-
  REF_INSEE: 98613
  NAME: "Uvea"
  SLUG: "uvea"
  NORMALIZED: "uvea"
  DEPARTMENT: 986
  REGION: ""
  IS_DISTRICT: 0
  DISTRICT_OF: ""
  ZIP_CODES: 98600
  LATITUDE: -13.281862538
  LONGITUDE: -176.161927918
-
  REF_INSEE: 98711
  NAME: "Anaa"
  SLUG: "anaa"
  NORMALIZED: "anaa"
  DEPARTMENT: 987
  REGION: ""
  IS_DISTRICT: 0
  DISTRICT_OF: ""
  ZIP_CODES: "98786,98790,98760"
  LATITUDE: -17.410531000
  LONGITUDE: -145.492830000
-
  REF_INSEE: 98712
  NAME: "Arue"
  SLUG: "arue"
  NORMALIZED: "arue"
  DEPARTMENT: 987
  REGION: ""
  IS_DISTRICT: 0
  DISTRICT_OF: ""
  ZIP_CODES: 98701
  LATITUDE: -17.531545000
  LONGITUDE: -149.528851000
-
  REF_INSEE: 98713
  NAME: "Arutua"
  SLUG: "arutua"
  NORMALIZED: "arutua"
  DEPARTMENT: 987
  REGION: ""
  IS_DISTRICT: 0
  DISTRICT_OF: ""
  ZIP_CODES: "98761,98762,98785"
  LATITUDE: -15.293538000
  LONGITUDE: -146.785928000
-
  REF_INSEE: 98714
  NAME: "Bora-Bora"
  SLUG: "bora-bora"
  NORMALIZED: "bora bora"
  DEPARTMENT: 987
  REGION: ""
  IS_DISTRICT: 0
  DISTRICT_OF: ""
  ZIP_CODES: 98730
  LATITUDE: -16.498962000
  LONGITUDE: -151.736639000
-
  REF_INSEE: 98715
  NAME: "Faaa"
  SLUG: "faaa"
  NORMALIZED: "faaa"
  DEPARTMENT: 987
  REGION: ""
  IS_DISTRICT: 0
  DISTRICT_OF: ""
  ZIP_CODES: 98704
  LATITUDE: -17.563093000
  LONGITUDE: -149.596811000
-
  REF_INSEE: 98716
  NAME: "Fakarava"
  SLUG: "fakarava"
  NORMALIZED: "fakarava"
  DEPARTMENT: 987
  REGION: ""
  IS_DISTRICT: 0
  DISTRICT_OF: ""
  ZIP_CODES: "98790,98787,98763,98764"
  LATITUDE: -16.301956000
  LONGITUDE: -145.626189000
-
  REF_INSEE: 98717
  NAME: "Fangatau"
  SLUG: "fangatau"
  NORMALIZED: "fangatau"
  DEPARTMENT: 987
  REGION: ""
  IS_DISTRICT: 0
  DISTRICT_OF: ""
  ZIP_CODES: "98765,98766"
  LATITUDE: -15.821478000
  LONGITUDE: -140.888364000
-
  REF_INSEE: 98718
  NAME: "Fatu-Hiva"
  SLUG: "fatu-hiva"
  NORMALIZED: "fatu hiva"
  DEPARTMENT: 987
  REGION: ""
  IS_DISTRICT: 0
  DISTRICT_OF: ""
  ZIP_CODES: 98740
  LATITUDE: -10.487820000
  LONGITUDE: -138.647943000
-
  REF_INSEE: 98719
  NAME: "Gambier"
  SLUG: "gambier"
  NORMALIZED: "gambier"
  DEPARTMENT: 987
  REGION: ""
  IS_DISTRICT: 0
  DISTRICT_OF: ""
  ZIP_CODES: "98755,98792,98793"
  LATITUDE: -23.121970000
  LONGITUDE: -134.974315000
-
  REF_INSEE: 98720
  NAME: "Hao"
  SLUG: "hao"
  NORMALIZED: "hao"
  DEPARTMENT: 987
  REGION: ""
  IS_DISTRICT: 0
  DISTRICT_OF: ""
  ZIP_CODES: "98790,98767"
  LATITUDE: -18.113403000
  LONGITUDE: -140.904359000
-
  REF_INSEE: 98721
  NAME: "Hikueru"
  SLUG: "hikueru"
  NORMALIZED: "hikueru"
  DEPARTMENT: 987
  REGION: ""
  IS_DISTRICT: 0
  DISTRICT_OF: ""
  ZIP_CODES: "98790,98768"
  LATITUDE: -17.550378000
  LONGITUDE: -142.610521000
-
  REF_INSEE: 98722
  NAME: "Hitiaa O Te Ra"
  SLUG: "hitiaa-o-te-ra"
  NORMALIZED: "hitiaa o te ra"
  DEPARTMENT: 987
  REGION: ""
  IS_DISTRICT: 0
  DISTRICT_OF: ""
  ZIP_CODES: "98705,98706,98708,98707"
  LATITUDE: -17.561262000
  LONGITUDE: -149.368478000
-
  REF_INSEE: 98723
  NAME: "Hiva-Oa"
  SLUG: "hiva-oa"
  NORMALIZED: "hiva oa"
  DEPARTMENT: 987
  REGION: ""
  IS_DISTRICT: 0
  DISTRICT_OF: ""
  ZIP_CODES: "98741,98749,98796"
  LATITUDE: -17.547756000
  LONGITUDE: -149.366204000
-
  REF_INSEE: 98724
  NAME: "Huahine"
  SLUG: "huahine"
  NORMALIZED: "huahine"
  DEPARTMENT: 987
  REGION: ""
  IS_DISTRICT: 0
  DISTRICT_OF: ""
  ZIP_CODES: "98731,98732"
  LATITUDE: -16.784023000
  LONGITUDE: -150.986709000
-
  REF_INSEE: 98725
  NAME: "Mahina"
  SLUG: "mahina"
  NORMALIZED: "mahina"
  DEPARTMENT: 987
  REGION: ""
  IS_DISTRICT: 0
  DISTRICT_OF: ""
  ZIP_CODES: "98709,98710"
  LATITUDE: -17.509741000
  LONGITUDE: -149.480726000
-
  REF_INSEE: 98726
  NAME: "Makemo"
  SLUG: "makemo"
  NORMALIZED: "makemo"
  DEPARTMENT: 987
  REGION: ""
  IS_DISTRICT: 0
  DISTRICT_OF: ""
  ZIP_CODES: "98790,98769,98789"
  LATITUDE: -16.606753000
  LONGITUDE: -143.701645000
-
  REF_INSEE: 98727
  NAME: "Manihi"
  SLUG: "manihi"
  NORMALIZED: "manihi"
  DEPARTMENT: 987
  REGION: ""
  IS_DISTRICT: 0
  DISTRICT_OF: ""
  ZIP_CODES: "98771,98770"
  LATITUDE: -14.464131000
  LONGITUDE: -146.054349000
-
  REF_INSEE: 98728
  NAME: "Maupiti"
  SLUG: "maupiti"
  NORMALIZED: "maupiti"
  DEPARTMENT: 987
  REGION: ""
  IS_DISTRICT: 0
  DISTRICT_OF: ""
  ZIP_CODES: 98732
  LATITUDE: -16.444034000
  LONGITUDE: -152.259157000
-
  REF_INSEE: 98729
  NAME: "Moorea-Maiao"
  SLUG: "moorea-maiao"
  NORMALIZED: "moorea maiao"
  DEPARTMENT: 987
  REGION: ""
  IS_DISTRICT: 0
  DISTRICT_OF: ""
  ZIP_CODES: "98728,98729"
  LATITUDE: -17.547376000
  LONGITUDE: -149.821121000
-
  REF_INSEE: 98730
  NAME: "Napuka"
  SLUG: "napuka"
  NORMALIZED: "napuka"
  DEPARTMENT: 987
  REGION: ""
  IS_DISTRICT: 0
  DISTRICT_OF: ""
  ZIP_CODES: 98772
  LATITUDE: -14.170352000
  LONGITUDE: -141.231715000
-
  REF_INSEE: 98731
  NAME: "Nuku-Hiva"
  SLUG: "nuku-hiva"
  NORMALIZED: "nuku hiva"
  DEPARTMENT: 987
  REGION: ""
  IS_DISTRICT: 0
  DISTRICT_OF: ""
  ZIP_CODES: "98742,98796,98748"
  LATITUDE: -8.862928000
  LONGITUDE: -140.141781000
-
  REF_INSEE: 98732
  NAME: "Nukutavake"
  SLUG: "nukutavake"
  NORMALIZED: "nukutavake"
  DEPARTMENT: 987
  REGION: ""
  IS_DISTRICT: 0
  DISTRICT_OF: ""
  ZIP_CODES: "98773,98788"
  LATITUDE: -19.280843000
  LONGITUDE: -138.783709000
-
  REF_INSEE: 98733
  NAME: "Paea"
  SLUG: "paea"
  NORMALIZED: "paea"
  DEPARTMENT: 987
  REGION: ""
  IS_DISTRICT: 0
  DISTRICT_OF: ""
  ZIP_CODES: 98711
  LATITUDE: -17.690768000
  LONGITUDE: -149.582963000
-
  REF_INSEE: 98734
  NAME: "Papara"
  SLUG: "papara"
  NORMALIZED: "papara"
  DEPARTMENT: 987
  REGION: ""
  IS_DISTRICT: 0
  DISTRICT_OF: ""
  ZIP_CODES: 98712
  LATITUDE: -17.760839000
  LONGITUDE: -149.503515000
-
  REF_INSEE: 98735
  NAME: "Papeete"
  SLUG: "papeete"
  NORMALIZED: "papeete"
  DEPARTMENT: 987
  REGION: ""
  IS_DISTRICT: 0
  DISTRICT_OF: ""
  ZIP_CODES: 98714
  LATITUDE: -17.533005000
  LONGITUDE: -149.567520000
-
  REF_INSEE: 98736
  NAME: "Pirae"
  SLUG: "pirae"
  NORMALIZED: "pirae"
  DEPARTMENT: 987
  REGION: ""
  IS_DISTRICT: 0
  DISTRICT_OF: ""
  ZIP_CODES: 98716
  LATITUDE: -17.535537000
  LONGITUDE: -149.547310000
-
  REF_INSEE: 98737
  NAME: "Pukapuka"
  SLUG: "pukapuka"
  NORMALIZED: "pukapuka"
  DEPARTMENT: 987
  REGION: ""
  IS_DISTRICT: 0
  DISTRICT_OF: ""
  ZIP_CODES: 98774
  LATITUDE: -14.811570000
  LONGITUDE: -138.839127000
-
  REF_INSEE: 98738
  NAME: "Punaauia"
  SLUG: "punaauia"
  NORMALIZED: "punaauia"
  DEPARTMENT: 987
  REGION: ""
  IS_DISTRICT: 0
  DISTRICT_OF: ""
  ZIP_CODES: "98703,98718"
  LATITUDE: -17.594023000
  LONGITUDE: -149.612080000
-
  REF_INSEE: 98739
  NAME: "Raivavae"
  SLUG: "raivavae"
  NORMALIZED: "raivavae"
  DEPARTMENT: 987
  REGION: ""
  IS_DISTRICT: 0
  DISTRICT_OF: ""
  ZIP_CODES: 98750
  LATITUDE: -23.869694000
  LONGITUDE: -147.687239000
-
  REF_INSEE: 98740
  NAME: "Rangiroa"
  SLUG: "rangiroa"
  NORMALIZED: "rangiroa"
  DEPARTMENT: 987
  REGION: ""
  IS_DISTRICT: 0
  DISTRICT_OF: ""
  ZIP_CODES: "98775,98776,98790,98777,98778"
  LATITUDE: -14.942337000
  LONGITUDE: -147.703164000
-
  REF_INSEE: 98741
  NAME: "Rapa"
  SLUG: "rapa"
  NORMALIZED: "rapa"
  DEPARTMENT: 987
  REGION: ""
  IS_DISTRICT: 0
  DISTRICT_OF: ""
  ZIP_CODES: "98751,98794"
  LATITUDE: -27.627045000
  LONGITUDE: -144.337009000
-
  REF_INSEE: 98742
  NAME: "Reao"
  SLUG: "reao"
  NORMALIZED: "reao"
  DEPARTMENT: 987
  REGION: ""
  IS_DISTRICT: 0
  DISTRICT_OF: ""
  ZIP_CODES: "98780,98779"
  LATITUDE: -18.466728000
  LONGITUDE: -136.463115000
-
  REF_INSEE: 98743
  NAME: "Rimatara"
  SLUG: "rimatara"
  NORMALIZED: "rimatara"
  DEPARTMENT: 987
  REGION: ""
  IS_DISTRICT: 0
  DISTRICT_OF: ""
  ZIP_CODES: "98752,98795"
  LATITUDE: -22.649157000
  LONGITUDE: -152.805149000
-
  REF_INSEE: 98744
  NAME: "Rurutu"
  SLUG: "rurutu"
  NORMALIZED: "rurutu"
  DEPARTMENT: 987
  REGION: ""
  IS_DISTRICT: 0
  DISTRICT_OF: ""
  ZIP_CODES: 98753
  LATITUDE: -22.466437000
  LONGITUDE: -151.343346000
-
  REF_INSEE: 98745
  NAME: "Tahaa"
  SLUG: "tahaa"
  NORMALIZED: "tahaa"
  DEPARTMENT: 987
  REGION: ""
  IS_DISTRICT: 0
  DISTRICT_OF: ""
  ZIP_CODES: "98733,98734"
  LATITUDE: -16.612354000
  LONGITUDE: -151.495729000
-
  REF_INSEE: 98746
  NAME: "Tahuata"
  SLUG: "tahuata"
  NORMALIZED: "tahuata"
  DEPARTMENT: 987
  REGION: ""
  IS_DISTRICT: 0
  DISTRICT_OF: ""
  ZIP_CODES: 98743
  LATITUDE: -9.938333000
  LONGITUDE: -139.085260000
-
  REF_INSEE: 98747
  NAME: "Taiarapu-Est"
  SLUG: "taiarapu-est"
  NORMALIZED: "taiarapu est"
  DEPARTMENT: 987
  REGION: ""
  IS_DISTRICT: 0
  DISTRICT_OF: ""
  ZIP_CODES: "98719,98720,98721,98722"
  LATITUDE: -17.733057000
  LONGITUDE: -149.306752000
-
  REF_INSEE: 98748
  NAME: "Taiarapu-Ouest"
  SLUG: "taiarapu-ouest"
  NORMALIZED: "taiarapu ouest"
  DEPARTMENT: 987
  REGION: ""
  IS_DISTRICT: 0
  DISTRICT_OF: ""
  ZIP_CODES: "98724,98723,98725"
  LATITUDE: -17.811245000
  LONGITUDE: -149.288740000
-
  REF_INSEE: 98749
  NAME: "Takaroa"
  SLUG: "takaroa"
  NORMALIZED: "takaroa"
  DEPARTMENT: 987
  REGION: ""
  IS_DISTRICT: 0
  DISTRICT_OF: ""
  ZIP_CODES: "98781,98790,98782"
  LATITUDE: -14.456888000
  LONGITUDE: -145.028072000
-
  REF_INSEE: 98750
  NAME: "Taputapuatea"
  SLUG: "taputapuatea"
  NORMALIZED: "taputapuatea"
  DEPARTMENT: 987
  REGION: ""
  IS_DISTRICT: 0
  DISTRICT_OF: ""
  ZIP_CODES: 98735
  LATITUDE: -16.835938000
  LONGITUDE: -151.358598000
-
  REF_INSEE: 98751
  NAME: "Tatakoto"
  SLUG: "tatakoto"
  NORMALIZED: "tatakoto"
  DEPARTMENT: 987
  REGION: ""
  IS_DISTRICT: 0
  DISTRICT_OF: ""
  ZIP_CODES: 98783
  LATITUDE: -17.345460000
  LONGITUDE: -138.451821000
-
  REF_INSEE: 98752
  NAME: "Teva I Uta"
  SLUG: "teva-i-uta"
  NORMALIZED: "teva i uta"
  DEPARTMENT: 987
  REGION: ""
  IS_DISTRICT: 0
  DISTRICT_OF: ""
  ZIP_CODES: "98726,98727"
  LATITUDE: -17.764363000
  LONGITUDE: -149.401823000
-
  REF_INSEE: 98753
  NAME: "Tubuai"
  SLUG: "tubuai"
  NORMALIZED: "tubuai"
  DEPARTMENT: 987
  REGION: ""
  IS_DISTRICT: 0
  DISTRICT_OF: ""
  ZIP_CODES: 98754
  LATITUDE: -23.381415000
  LONGITUDE: -149.490145000
-
  REF_INSEE: 98754
  NAME: "Tumaraa"
  SLUG: "tumaraa"
  NORMALIZED: "tumaraa"
  DEPARTMENT: 987
  REGION: ""
  IS_DISTRICT: 0
  DISTRICT_OF: ""
  ZIP_CODES: 98735
  LATITUDE: -16.787674000
  LONGITUDE: -151.479752000
-
  REF_INSEE: 98755
  NAME: "Tureia"
  SLUG: "tureia"
  NORMALIZED: "tureia"
  DEPARTMENT: 987
  REGION: ""
  IS_DISTRICT: 0
  DISTRICT_OF: ""
  ZIP_CODES: 98784
  LATITUDE: -20.771083000
  LONGITUDE: -138.564291000
-
  REF_INSEE: 98756
  NAME: "Ua-Huka"
  SLUG: "ua-huka"
  NORMALIZED: "ua huka"
  DEPARTMENT: 987
  REGION: ""
  IS_DISTRICT: 0
  DISTRICT_OF: ""
  ZIP_CODES: "98747,98744"
  LATITUDE: -8.914607000
  LONGITUDE: -139.533869000
-
  REF_INSEE: 98757
  NAME: "Ua-Pou"
  SLUG: "ua-pou"
  NORMALIZED: "ua pou"
  DEPARTMENT: 987
  REGION: ""
  IS_DISTRICT: 0
  DISTRICT_OF: ""
  ZIP_CODES: "98745,98746"
  LATITUDE: -9.382538000
  LONGITUDE: -140.058951000
-
  REF_INSEE: 98758
  NAME: "Uturoa"
  SLUG: "uturoa"
  NORMALIZED: "uturoa"
  DEPARTMENT: 987
  REGION: ""
  IS_DISTRICT: 0
  DISTRICT_OF: ""
  ZIP_CODES: 98735
  LATITUDE: -16.725701000
  LONGITUDE: -151.457907000
-
  REF_INSEE: 98801
  NAME: "Belep"
  SLUG: "belep"
  NORMALIZED: "belep"
  DEPARTMENT: 988
  REGION: ""
  IS_DISTRICT: 0
  DISTRICT_OF: ""
  ZIP_CODES: 98811
  LATITUDE: -19.750122000
  LONGITUDE: 163.666335000
-
  REF_INSEE: 98802
  NAME: "Bouloupari"
  SLUG: "bouloupari"
  NORMALIZED: "bouloupari"
  DEPARTMENT: 988
  REGION: ""
  IS_DISTRICT: 0
  DISTRICT_OF: ""
  ZIP_CODES: 98812
  LATITUDE: -21.862633000
  LONGITUDE: 166.050904000
-
  REF_INSEE: 98803
  NAME: "Bourail"
  SLUG: "bourail"
  NORMALIZED: "bourail"
  DEPARTMENT: 988
  REGION: ""
  IS_DISTRICT: 0
  DISTRICT_OF: ""
  ZIP_CODES: 98870
  LATITUDE: -21.561670000
  LONGITUDE: 165.491996000
-
  REF_INSEE: 98804
  NAME: "Canala"
  SLUG: "canala"
  NORMALIZED: "canala"
  DEPARTMENT: 988
  REGION: ""
  IS_DISTRICT: 0
  DISTRICT_OF: ""
  ZIP_CODES: 98813
  LATITUDE: -21.520295000
  LONGITUDE: 165.958893000
-
  REF_INSEE: 98805
  NAME: "Dumbéa"
  SLUG: "dumbea"
  NORMALIZED: "dumbea"
  DEPARTMENT: 988
  REGION: ""
  IS_DISTRICT: 0
  DISTRICT_OF: ""
  ZIP_CODES: "98830,98836,98837,98839,98835"
  LATITUDE: -22.158216000
  LONGITUDE: 166.453514000
-
  REF_INSEE: 98806
  NAME: "Farino"
  SLUG: "farino"
  NORMALIZED: "farino"
  DEPARTMENT: 988
  REGION: ""
  IS_DISTRICT: 0
  DISTRICT_OF: ""
  ZIP_CODES: 98881
  LATITUDE: -21.665824000
  LONGITUDE: 165.775731000
-
  REF_INSEE: 98807
  NAME: "Hienghène"
  SLUG: "hienghene"
  NORMALIZED: "hienghene"
  DEPARTMENT: 988
  REGION: ""
  IS_DISTRICT: 0
  DISTRICT_OF: ""
  ZIP_CODES: 98815
  LATITUDE: -20.688630000
  LONGITUDE: 164.943881000
-
  REF_INSEE: 98808
  NAME: "Houaïlou"
  SLUG: "houailou"
  NORMALIZED: "houailou"
  DEPARTMENT: 988
  REGION: ""
  IS_DISTRICT: 0
  DISTRICT_OF: ""
  ZIP_CODES: "98816,98838"
  LATITUDE: -21.278387000
  LONGITUDE: 165.630087000
-
  REF_INSEE: 98809
  NAME: "Île-des-Pins"
  SLUG: "ile-des-pins"
  NORMALIZED: "ile des pins"
  DEPARTMENT: 988
  REGION: ""
  IS_DISTRICT: 0
  DISTRICT_OF: ""
  ZIP_CODES: 98832
  LATITUDE: -22.615612000
  LONGITUDE: 167.480983000
-
  REF_INSEE: 98810
  NAME: "Kaala-Gomen"
  SLUG: "kaala-gomen"
  NORMALIZED: "kaala gomen"
  DEPARTMENT: 988
  REGION: ""
  IS_DISTRICT: 0
  DISTRICT_OF: ""
  ZIP_CODES: 98817
  LATITUDE: -20.666537000
  LONGITUDE: 164.398277000
-
  REF_INSEE: 98811
  NAME: "Koné"
  SLUG: "kone"
  NORMALIZED: "kone"
  DEPARTMENT: 988
  REGION: ""
  IS_DISTRICT: 0
  DISTRICT_OF: ""
  ZIP_CODES: "98859,98860"
  LATITUDE: -21.056387000
  LONGITUDE: 164.857063000
-
  REF_INSEE: 98812
  NAME: "Koumac"
  SLUG: "koumac"
  NORMALIZED: "koumac"
  DEPARTMENT: 988
  REGION: ""
  IS_DISTRICT: 0
  DISTRICT_OF: ""
  ZIP_CODES: 98850
  LATITUDE: -20.557453000
  LONGITUDE: 164.285495000
-
  REF_INSEE: 98813
  NAME: "La Foa"
  SLUG: "la-foa"
  NORMALIZED: "la foa"
  DEPARTMENT: 988
  REGION: ""
  IS_DISTRICT: 0
  DISTRICT_OF: ""
  ZIP_CODES: 98880
  LATITUDE: -21.708432000
  LONGITUDE: 165.826006000
-
  REF_INSEE: 98814
  NAME: "Lifou"
  SLUG: "lifou"
  NORMALIZED: "lifou"
  DEPARTMENT: 988
  REGION: ""
  IS_DISTRICT: 0
  DISTRICT_OF: ""
  ZIP_CODES: "98820,98885,98884"
  LATITUDE: -20.954744000
  LONGITUDE: 167.221178000
-
  REF_INSEE: 98815
  NAME: "Maré"
  SLUG: "mare"
  NORMALIZED: "mare"
  DEPARTMENT: 988
  REGION: ""
  IS_DISTRICT: 0
  DISTRICT_OF: ""
  ZIP_CODES: "98828,98878"
  LATITUDE: -21.489473000
  LONGITUDE: 168.000064000
-
  REF_INSEE: 98816
  NAME: "Moindou"
  SLUG: "moindou"
  NORMALIZED: "moindou"
  DEPARTMENT: 988
  REGION: ""
  IS_DISTRICT: 0
  DISTRICT_OF: ""
  ZIP_CODES: 98819
  LATITUDE: -21.692723000
  LONGITUDE: 165.677347000
-
  REF_INSEE: 98817
  NAME: "Mont-Dore"
  SLUG: "mont-dore"
  NORMALIZED: "mont dore"
  DEPARTMENT: 988
  REGION: ""
  IS_DISTRICT: 0
  DISTRICT_OF: ""
  ZIP_CODES: "98874,98876,98810,98809,98875"
  LATITUDE: -22.266108000
  LONGITUDE: 166.566186000
-
  REF_INSEE: 98818
  NAME: "Nouméa"
  SLUG: "noumea"
  NORMALIZED: "noumea"
  DEPARTMENT: 988
  REGION: ""
  IS_DISTRICT: 0
  DISTRICT_OF: ""
  ZIP_CODES: 98800
  LATITUDE: -22.268168000
  LONGITUDE: 166.457038000
-
  REF_INSEE: 98819
  NAME: "Ouégoa"
  SLUG: "ouegoa"
  NORMALIZED: "ouegoa"
  DEPARTMENT: 988
  REGION: ""
  IS_DISTRICT: 0
  DISTRICT_OF: ""
  ZIP_CODES: 98821
  LATITUDE: -20.344466000
  LONGITUDE: 164.438317000
-
  REF_INSEE: 98820
  NAME: "Ouvéa"
  SLUG: "ouvea"
  NORMALIZED: "ouvea"
  DEPARTMENT: 988
  REGION: ""
  IS_DISTRICT: 0
  DISTRICT_OF: ""
  ZIP_CODES: 98814
  LATITUDE: -20.644496000
  LONGITUDE: 166.569525000
-
  REF_INSEE: 98821
  NAME: "Païta"
  SLUG: "paita"
  NORMALIZED: "paita"
  DEPARTMENT: 988
  REGION: ""
  IS_DISTRICT: 0
  DISTRICT_OF: ""
  ZIP_CODES: "98840,98889,98890"
  LATITUDE: -22.133804000
  LONGITUDE: 166.360606000
-
  REF_INSEE: 98822
  NAME: "Poindimié"
  SLUG: "poindimie"
  NORMALIZED: "poindimie"
  DEPARTMENT: 988
  REGION: ""
  IS_DISTRICT: 0
  DISTRICT_OF: ""
  ZIP_CODES: 98822
  LATITUDE: -20.937112000
  LONGITUDE: 165.332115000
-
  REF_INSEE: 98823
  NAME: "Ponérihouen"
  SLUG: "ponerihouen"
  NORMALIZED: "ponerihouen"
  DEPARTMENT: 988
  REGION: ""
  IS_DISTRICT: 0
  DISTRICT_OF: ""
  ZIP_CODES: 98823
  LATITUDE: -21.071245000
  LONGITUDE: 165.402002000
-
  REF_INSEE: 98824
  NAME: "Pouébo"
  SLUG: "pouebo"
  NORMALIZED: "pouebo"
  DEPARTMENT: 988
  REGION: ""
  IS_DISTRICT: 0
  DISTRICT_OF: ""
  ZIP_CODES: 98824
  LATITUDE: -20.391215000
  LONGITUDE: 164.576011000
-
  REF_INSEE: 98825
  NAME: "Pouembout"
  SLUG: "pouembout"
  NORMALIZED: "pouembout"
  DEPARTMENT: 988
  REGION: ""
  IS_DISTRICT: 0
  DISTRICT_OF: ""
  ZIP_CODES: 98825
  LATITUDE: -21.115408000
  LONGITUDE: 164.899464000
-
  REF_INSEE: 98826
  NAME: "Poum"
  SLUG: "poum"
  NORMALIZED: "poum"
  DEPARTMENT: 988
  REGION: ""
  IS_DISTRICT: 0
  DISTRICT_OF: ""
  ZIP_CODES: 98826
  LATITUDE: -20.231607000
  LONGITUDE: 164.024066000
-
  REF_INSEE: 98827
  NAME: "Poya"
  SLUG: "poya"
  NORMALIZED: "poya"
  DEPARTMENT: 988
  REGION: ""
  IS_DISTRICT: 0
  DISTRICT_OF: ""
  ZIP_CODES: "98827,98877"
  LATITUDE: -21.344747000
  LONGITUDE: 165.157530000
-
  REF_INSEE: 98828
  NAME: "Sarraméa"
  SLUG: "sarramea"
  NORMALIZED: "sarramea"
  DEPARTMENT: 988
  REGION: ""
  IS_DISTRICT: 0
  DISTRICT_OF: ""
  ZIP_CODES: 98882
  LATITUDE: -21.642163000
  LONGITUDE: 165.853665000
-
  REF_INSEE: 98829
  NAME: "Thio"
  SLUG: "thio"
  NORMALIZED: "thio"
  DEPARTMENT: 988
  REGION: ""
  IS_DISTRICT: 0
  DISTRICT_OF: ""
  ZIP_CODES: 98829
  LATITUDE: -21.610504000
  LONGITUDE: 166.215669000
-
  REF_INSEE: 98830
  NAME: "Touho"
  SLUG: "touho"
  NORMALIZED: "touho"
  DEPARTMENT: 988
  REGION: ""
  IS_DISTRICT: 0
  DISTRICT_OF: ""
  ZIP_CODES: 98831
  LATITUDE: -20.790733000
  LONGITUDE: 165.258342000
-
  REF_INSEE: 98831
  NAME: "Voh"
  SLUG: "voh"
  NORMALIZED: "voh"
  DEPARTMENT: 988
  REGION: ""
  IS_DISTRICT: 0
  DISTRICT_OF: ""
  ZIP_CODES: "98883,98833"
  LATITUDE: -20.948963000
  LONGITUDE: 164.685938000
-
  REF_INSEE: 98832
  NAME: "Yaté"
  SLUG: "yate"
  NORMALIZED: "yate"
  DEPARTMENT: 988
  REGION: ""
  IS_DISTRICT: 0
  DISTRICT_OF: ""
  ZIP_CODES: 98834
  LATITUDE: -22.165755000
  LONGITUDE: 166.950065000
-
  REF_INSEE: 98833
  NAME: "Kouaoua"
  SLUG: "kouaoua"
  NORMALIZED: "kouaoua"
  DEPARTMENT: 988
  REGION: ""
  IS_DISTRICT: 0
  DISTRICT_OF: ""
  ZIP_CODES: 98818
  LATITUDE: -21.396270000
  LONGITUDE: 165.828710000
-
  REF_INSEE: 98901
  NAME: "Île de Clipperton"
  SLUG: "ile-de-clipperton"
  NORMALIZED: "ile de clipperton"
  DEPARTMENT: 989
  REGION: ""
  IS_DISTRICT: 0
  DISTRICT_OF: ""
  ZIP_CODES: 98799
  LATITUDE: 10.297389384
  LONGITUDE: -109.221264243
...
